[
  {
    "id": "None",
    "index": 0,
    "name": "Melbourne, Australia",
    "lat": -37.8136,
    "lng": 144.9631
  },
  {
    "id": "None",
    "index": 1,
    "name": "Istanbul, Turkey",
    "lat": 41.0082,
    "lng": 28.9784
  },
  {
    "id": "None",
    "index": 2,
    "name": "Tiran\u00eb, Albania",
    "lat": 41.3275,
    "lng": 19.8187
  },
  {
    "id": 14,
    "index": 3,
    "name": "Kor\u00e7\u00eb, Albania",
    "lat": 40.6161,
    "lng": 20.7802
  },
  {
    "id": 20,
    "index": 4,
    "name": "Berat, Albania",
    "lat": 40.70583,
    "lng": 19.95222
  },
  {
    "id": 26,
    "index": 5,
    "name": "The Accursed Mountains",
    "lat": 42.4793,
    "lng": 19.8503
  },
  {
    "id": "None",
    "index": 6,
    "name": "Budva, Montenegro",
    "lat": 42.2911,
    "lng": 18.8403
  },
  {
    "id": 34,
    "index": 7,
    "name": "Podgorica, Montenegro",
    "lat": 42.4304,
    "lng": 19.2594
  },
  {
    "id": "None",
    "index": 8,
    "name": "Ljubljana, Slovenia",
    "lat": 46.0569,
    "lng": 14.5058
  },
  {
    "id": 39,
    "index": 9,
    "name": "Bohinj, Slovenia",
    "lat": 46.2970919,
    "lng": 13.9260094
  },
  {
    "id": 42,
    "index": 10,
    "name": "Julian Alps, Slovenia",
    "lat": 46.3783,
    "lng": 13.8369
  },
  {
    "id": 47,
    "index": 11,
    "name": "Vipava Valley, Slovenia",
    "lat": 45.8456,
    "lng": 13.9626
  },
  {
    "id": 49,
    "index": 12,
    "name": "Trieste, Italy",
    "lat": 45.6508,
    "lng": 13.7674
  },
  {
    "id": 52,
    "index": 13,
    "name": "Valpolicella, Italy",
    "lat": 45.533,
    "lng": 10.933
  },
  {
    "id": 55,
    "index": 14,
    "name": "Dolomites, Italy",
    "lat": 46.4102,
    "lng": 11.844
  },
  {
    "id": 61,
    "index": 15,
    "name": "Munich, Germany",
    "lat": 48.1351,
    "lng": 11.582
  },
  {
    "id": "None",
    "index": 16,
    "name": "Vienna, Austria",
    "lat": 48.2082,
    "lng": 16.3738
  },
  {
    "id": 62,
    "index": 17,
    "name": "Tatra Mountains, Slovakia",
    "lat": 49.055187,
    "lng": 20.301434
  },
  {
    "id": "None",
    "index": 18,
    "name": "Krakow, Poland",
    "lat": 50.0647,
    "lng": 19.945,
    "current": true
  },
  {
    "id": 63,
    "index": 19,
    "name": "Pohoda festival, Slovakia",
    "lat": 48.8849,
    "lng": 18.0335
  },
  {
    "id": "None",
    "index": 20,
    "name": "Prague, Czechia",
    "lat": 50.0755,
    "lng": 14.4378
  },
  {
    "id": 64,
    "index": 21,
    "name": "Tupesy, Czechia",
    "lat": 49.0843,
    "lng": 17.3698
  },
  {
    "id": 65,
    "index": 22,
    "name": "Kutaisi, Georgia",
    "lat": 42.2679,
    "lng": 42.6946
  },
  {
    "id": 66,
    "index": 23,
    "name": "Svaneti, Georgia",
    "lat": 43.040666504,
    "lng": 42.724497102
  },
  {
    "id": "None",
    "index": 24,
    "name": "Tbilisi, Georgia",
    "lat": 41.7151,
    "lng": 44.8271
  },
  {
    "id": "None",
    "index": 25,
    "name": "Armenia",
    "lat": 40.1792,
    "lng": 44.4991
  },
  {
    "id": "None",
    "index": 26,
    "name": "Kazakhstan",
    "lat": 43.222,
    "lng": 76.8512
  },
  {
    "id": "None",
    "index": 27,
    "name": "Uzbekistan",
    "lat": 41.2995,
    "lng": 69.2401
  },
  {
    "id": "None",
    "index": 28,
    "name": "India",
    "lat": 28.6139,
    "lng": 77.209
  },
  {
    "id": "None",
    "index": 29,
    "name": "Taiwan",
    "lat": 25.033,
    "lng": 121.5654
  },
  {
    "id": "None",
    "index": 30,
    "name": "China",
    "lat": 25.0453,
    "lng": 102.7097
  },
  {
    "id": "None",
    "index": 31,
    "name": "Thailand",
    "lat": 13.7563,
    "lng": 100.5018
  }
]